City_ID,City,Lat,Lng,Max Temp,Humidity,Cloudiness,Wind Speed,Country,Date
0,blackmans bay,-43.0167,147.3167,16.4,51,100,1.34,AU,1697081126
1,tiksi,71.6872,128.8694,-4.3,82,100,7.08,RU,1697080877
2,port elizabeth,-33.918,25.5701,18.16,96,100,3.6,ZA,1697081126
3,aberdeen,57.1437,-2.0981,7.03,91,47,1.03,GB,1697080929
4,ushuaia,-54.8,-68.3,4.81,75,40,12.07,AR,1697081109
5,codrington,-38.2667,141.9667,13.68,79,74,9.35,AU,1697081110
6,papatowai,-46.5619,169.4708,12.13,65,49,6.96,NZ,1697081110
7,grytviken,-54.2811,-36.5092,-5.04,72,18,3.82,GS,1697080878
8,rubio,7.7013,-72.3557,26.47,84,14,1.73,VE,1697081110
9,albany,42.6001,-73.9662,11.92,82,100,1.24,US,1697081110
10,puerto santa,-8.9906,-78.6456,18.43,89,100,5.57,PE,1697081111
11,crane,31.3974,-102.3501,22.55,64,0,11.4,US,1697081111
12,whitehorse,60.7161,-135.0538,5.43,86,40,1.54,CA,1697080879
13,jamestown,42.097,-79.2353,9.77,99,75,2.06,US,1697080898
14,turuntayevo,52.2,107.6167,8.05,51,20,1.91,RU,1697081129
15,adamstown,-25.066,-130.1015,20.61,72,2,4.67,PN,1697080880
16,isafjordur,66.0755,-23.124,1.75,92,100,17.05,IS,1697080881
17,port-aux-francais,-49.35,70.2167,1.46,100,100,5.55,TF,1697081129
18,tofol,5.3248,163.0078,28.76,73,98,3.69,FM,1697081130
19,hawaiian paradise park,19.5933,-154.9731,25.02,87,75,5.01,US,1697081130
20,badger,64.8,-147.5333,-3.86,91,100,2.06,US,1697081130
21,twon-brass,4.3151,6.2418,26.4,85,99,3.1,NG,1697080882
22,west island,-12.1568,96.8225,27.99,74,75,5.66,CC,1697081131
23,bethel,41.3712,-73.414,12.19,82,0,0.0,US,1697081131
24,qaqortoq,60.7167,-46.0333,1.95,91,11,3.34,GL,1697080883
25,ciudad lazaro cardenas,17.9583,-102.2,24.6,89,78,2.16,MX,1697080889
26,thompson,55.7435,-97.8558,7.09,53,75,2.06,CA,1697081132
27,constantia,44.1833,28.65,8.38,68,7,3.75,RO,1697081062
28,el obeid,13.1842,30.2167,25.65,63,47,6.61,SD,1697081132
29,polyarnyy,69.1989,33.4478,1.05,87,98,12.19,RU,1697080885
30,santo antonio,-6.3106,-35.4789,21.43,92,25,3.4,BR,1697081133
31,morrope,-6.5417,-80.0111,19.06,84,17,6.55,PE,1697081133
32,guerrero negro,27.9769,-114.0611,19.62,76,20,8.36,MX,1697080941
33,kattivakkam,13.2167,80.3167,30.04,80,90,1.42,IN,1697081134
34,fort st. john,56.2499,-120.8529,8.94,100,100,1.03,CA,1697081134
35,vorgashor,67.5833,63.95,-0.66,83,99,1.15,RU,1697081134
36,weno,7.4515,151.8468,31.97,70,40,2.57,FM,1697081134
37,mugia,43.1041,-9.2179,18.84,80,57,5.24,ES,1697081134
38,keflavik,64.0049,-22.5624,3.24,93,100,11.32,IS,1697080887
39,nizhneangarsk,55.7833,109.55,6.67,81,24,0.45,RU,1697081135
40,enewetak,11.3474,162.3373,28.6,73,42,5.31,MH,1697080873
41,impfondo,1.6381,18.0667,21.04,90,19,0.51,CG,1697081136
42,kaifeng,34.7911,114.3483,20.57,43,100,0.89,CN,1697081136
43,vilyuysk,63.7553,121.6247,6.2,60,45,5.81,RU,1697081136
44,lazaro cardenas,17.9583,-102.2,24.6,89,78,2.16,MX,1697080889
45,port mathurin,-19.6833,63.4167,23.45,77,40,4.28,MU,1697081137
46,invercargill,-46.4,168.35,12.79,80,91,8.94,NZ,1697080903
47,luena,-11.7833,19.9167,17.73,78,90,1.41,AO,1697081138
48,waitangi,-43.9535,-176.5597,12.68,81,21,6.71,NZ,1697080874
49,hadibu,12.65,54.0333,26.94,82,81,2.02,YE,1697080891
50,phang nga,8.4509,98.5298,31.02,76,100,0.73,TH,1697081139
51,iqaluit,63.7506,-68.5145,-1.15,86,20,3.6,CA,1697080888
52,longyearbyen,78.2186,15.6401,-4.09,58,40,8.23,SJ,1697081139
53,la serena,-29.9078,-71.2542,12.73,82,0,1.03,CL,1697080961
54,mejit,10.2753,170.8646,28.08,71,85,4.92,MH,1697081140
55,saint-philippe,-21.3585,55.7679,23.77,60,87,1.98,RE,1697081140
56,edinburgh of the seven seas,-37.0676,-12.3116,13.81,86,77,9.22,SH,1697080875
57,mahilyow,53.9139,30.3364,11.73,82,100,8.72,BY,1697081140
58,mount isa,-20.7333,139.5,33.87,18,97,6.69,AU,1697081140
59,olonkinbyen,70.9221,-8.7187,1.66,70,100,10.28,SJ,1697080900
60,maridi,4.9158,29.4742,19.37,92,100,0.28,SS,1697081123
61,tura,25.5198,90.2201,26.96,74,0,0.26,IN,1697081141
62,praia da vitoria,38.7333,-27.0667,18.75,94,20,4.11,PT,1697081141
63,yellowknife,62.456,-114.3525,9.12,100,100,2.06,CA,1697080856
64,port saint john's,-31.6229,29.5448,19.67,92,100,1.48,ZA,1697080974
65,zheshart,62.0731,49.5733,0.67,97,100,5.88,RU,1697081142
66,puerto natales,-51.7236,-72.4875,3.95,91,94,4.35,CL,1697080895
67,maasim,5.8575,125.0061,31.94,69,95,3.85,PH,1697081142
68,san patricio,28.017,-97.5169,23.92,88,91,2.41,US,1697080896
69,college,64.8569,-147.8028,-3.82,90,75,2.06,US,1697081143
70,bandar lampung,-5.4254,105.258,31.34,54,28,2.35,ID,1697081041
71,xinyuan,37.3,99.0,-0.31,85,100,1.63,CN,1697080897
72,manakara,-22.1333,48.0167,20.68,91,95,1.63,MG,1697080898
73,aasiaat,68.7098,-52.8699,-5.77,94,100,4.13,GL,1697081144
74,samalut,28.3121,30.7101,20.86,70,0,3.22,EG,1697081144
75,carnarvon,-24.8667,113.6333,26.17,45,39,7.51,AU,1697081144
76,susuman,62.7833,148.1667,-12.23,77,68,0.89,RU,1697080899
77,margaret river,-33.95,115.0667,18.84,41,0,2.02,AU,1697081009
78,phanom sarakham,13.7479,101.3553,30.9,76,89,2.75,TH,1697080900
79,verkhnevilyuysk,63.4453,120.3167,6.08,54,68,5.81,RU,1697081145
80,hami,42.8,93.45,20.39,16,62,2.77,CN,1697080899
81,maracacume,-2.0428,-45.9592,22.74,96,18,1.18,BR,1697081145
82,cannonvale,-20.2833,148.7,24.66,62,83,7.71,AU,1697081146
83,ketchikan,55.3422,-131.6461,9.99,87,0,2.06,US,1697081146
84,anadyr,64.75,177.4833,0.28,93,100,17.0,RU,1697080902
85,monki,53.405,22.7979,16.3,60,100,9.64,PL,1697081059
86,belabo,4.9333,13.3,19.57,99,80,0.26,CM,1697081146
87,araras,-22.3569,-47.3842,26.25,77,6,1.2,BR,1697081147
88,san pedro pochutla,15.7333,-96.4667,26.0,82,71,5.37,MX,1697080885
89,san antonio de pale,-1.4014,5.6325,25.27,83,100,4.38,GQ,1697081147
90,nieuw amsterdam,5.8833,-55.0833,27.79,85,0,4.17,SR,1697081147
91,new norfolk,-42.7826,147.0587,16.72,53,97,6.13,AU,1697080905
92,port lincoln,-34.7333,135.8667,16.33,57,12,8.18,AU,1697080905
93,bilibino,68.0546,166.4372,-6.69,85,100,2.06,RU,1697081148
94,ilulissat,69.2167,-51.1,-3.99,74,100,0.0,GL,1697080884
95,alice town,25.7167,-79.3,29.28,78,100,5.87,BS,1697080906
96,tsiombe,-25.3,45.4833,21.47,76,94,5.37,MG,1697080906
97,utrik,11.2278,169.8474,28.28,74,93,5.29,MH,1697080907
98,nar'yan-mar,67.6713,53.087,1.17,76,10,4.02,RU,1697081148
99,wailua homesteads,22.0669,-159.378,27.24,76,20,5.14,US,1697081149
100,ribeira grande,38.5167,-28.7,19.32,90,37,2.68,PT,1697080883
101,puerto ayora,-0.7393,-90.3518,23.64,92,100,3.58,EC,1697081149
102,concordia,-31.393,-58.0209,10.99,72,92,5.36,AR,1697080854
103,namibe,-15.1961,12.1522,20.09,84,96,2.43,AO,1697081149
104,flying fish cove,-10.4217,105.6791,26.82,83,100,6.17,CX,1697081150
105,hamilton,39.1834,-84.5333,15.47,81,100,3.09,US,1697080969
106,zaozersk,69.4005,32.4476,0.02,93,100,11.27,RU,1697081150
107,northam,51.0333,-4.2167,16.25,98,100,2.73,GB,1697081150
108,cooma,-36.2333,149.1333,23.27,29,4,8.42,AU,1697081150
109,talcahuano,-36.7167,-73.1167,9.82,81,0,4.12,CL,1697081151
110,petropavlovsk-kamchatsky,53.0452,158.6483,3.33,73,100,6.71,RU,1697080872
111,apolinario saravia,-24.4328,-63.9954,15.45,62,100,8.4,AR,1697080911
112,tabou,4.423,-7.3528,24.96,91,100,2.82,CI,1697081151
113,pitalito,1.8497,-76.0479,17.56,92,91,1.49,CO,1697080954
114,bredasdorp,-34.5322,20.0403,15.05,90,92,2.89,ZA,1697080906
115,revda,56.801,59.9303,1.6,97,100,3.32,RU,1697081152
116,humaita,-7.5061,-63.0208,27.49,65,64,0.79,BR,1697081152
117,san julian,21.0167,-102.1667,14.45,82,99,2.88,MX,1697081153
118,valparaiso,-33.0393,-71.6273,9.8,81,0,1.54,CL,1697080919
119,namtsy,62.7161,129.6658,7.8,57,12,6.83,RU,1697081154
120,bubaque,11.2833,-15.8333,27.62,81,99,2.93,GW,1697081154
121,nuuk,64.1835,-51.7216,0.34,74,20,7.2,GL,1697081154
122,meadow lakes,61.6247,-149.6011,2.69,96,100,0.0,US,1697080914
123,pirane,-25.7324,-59.1088,17.64,85,100,6.02,AR,1697081154
124,ridgecrest,35.6225,-117.6709,19.27,38,0,4.63,US,1697081038
125,porto novo,6.4965,2.6036,24.91,91,95,1.57,BJ,1697081155
126,pingnan,23.5543,110.3976,23.41,71,100,1.82,CN,1697081155
127,menongue,-14.6585,17.691,16.59,83,47,0.4,AO,1697081155
128,isangel,-19.55,169.2667,21.06,94,100,0.0,VU,1697080888
129,sao jose da coroa grande,-8.8978,-35.1478,23.69,82,2,2.65,BR,1697080916
130,al 'amarah,31.8406,47.1396,29.89,31,86,4.35,IQ,1697080916
131,beyla,8.6833,-8.6333,19.64,96,100,0.61,GN,1697081156
132,laojunmiao,39.8333,97.7333,11.84,28,100,1.54,CN,1697081156
133,kodiak,57.79,-152.4072,2.73,52,0,3.09,US,1697081156
134,stanley,54.868,-1.6985,3.76,93,0,2.06,GB,1697080879
135,rongelap,11.1635,166.8941,28.56,76,62,5.46,MH,1697080917
136,roccella ionica,38.322,16.4009,21.25,66,2,1.68,IT,1697081157
137,ouesso,1.6136,16.0517,21.45,93,97,0.44,CG,1697080918
138,alice springs,-23.7,133.8833,33.75,10,4,7.72,AU,1697080952
139,seosan,36.7817,126.4522,20.43,47,64,1.95,KR,1697080918
140,patterson,37.4716,-121.1297,19.32,50,0,3.45,US,1697081158
141,terra santa,-2.1042,-56.4869,28.66,40,31,1.14,BR,1697081158
142,fort bragg,35.139,-79.006,18.28,86,100,1.54,US,1697080881
143,kolonia,50.9333,6.95,19.42,68,20,6.17,DE,1697080964
144,camenca,48.0319,28.6978,9.52,70,21,5.03,MD,1697081158
145,ola,59.5833,151.2833,1.19,46,1,2.94,RU,1697081159
146,brookings,44.3114,-96.7984,11.77,48,0,6.17,US,1697081142
147,peebles,55.6519,-3.1888,6.09,99,4,1.73,GB,1697081159
148,kidal,18.4411,1.4078,27.44,16,10,2.8,ML,1697080922
149,maracas,-13.4411,-40.4308,15.52,88,2,2.23,BR,1697081160
150,mikuni,36.2171,136.1519,21.95,59,0,5.53,JP,1697081160
151,arno,60.1167,18.6333,9.88,64,64,10.91,SE,1697080923
152,hengchun,22.0042,120.7439,27.55,71,70,9.54,TW,1697081161
153,molchanovo,57.5817,83.7692,6.18,69,9,4.15,RU,1697080924
154,alvaraes,-3.2208,-64.8042,28.35,53,55,1.29,BR,1697081161
155,la'ie,21.6477,-157.9253,28.98,71,100,2.68,US,1697081161
156,happy valley-goose bay,53.3168,-60.3315,10.17,100,100,0.0,CA,1697080886
157,browns mills,39.9726,-74.5829,15.99,81,0,0.0,US,1697081162
158,mountain home,43.133,-115.6912,9.71,69,75,3.6,US,1697080932
159,haiku-pauwela,20.9219,-156.3051,27.01,65,20,7.2,US,1697081162
160,chonchi,-42.6128,-73.8092,6.73,76,85,2.83,CL,1697081162
161,prineville,44.2999,-120.8345,9.51,91,100,3.09,US,1697081162
162,bengkulu,-3.8004,102.2655,28.4,70,91,2.62,ID,1697081163
163,tralee,52.2704,-9.7026,9.48,89,87,2.13,IE,1697081163
164,punta arenas,-53.15,-70.9167,6.06,75,75,11.32,CL,1697080925
165,lihue,21.9789,-159.3672,27.58,70,20,5.14,US,1697081163
166,klyuchi,52.2667,79.1667,9.68,44,100,1.62,RU,1697080873
167,nantucket,41.2835,-70.0995,17.03,97,0,2.57,US,1697081164
168,rio grande,-32.035,-52.0986,11.64,77,100,9.24,BR,1697081153
169,palmer,42.1584,-72.3287,12.32,77,58,0.87,US,1697080929
170,ingleby greenhow,54.4498,-1.1069,4.98,93,100,0.91,GB,1697081165
171,carbonear,47.7332,-53.2148,13.01,95,100,1.25,CA,1697080916
172,anna regina,7.2644,-58.5077,27.47,76,0,3.9,GY,1697080930
173,forio,40.7342,13.8646,21.4,95,0,0.89,IT,1697080930
174,fortuna,40.5982,-124.1573,13.14,91,0,3.6,US,1697081166
175,mahuta,-10.8667,39.45,20.57,82,99,1.52,TZ,1697080930
176,bonthe,7.5264,-12.505,24.82,89,100,1.33,SL,1697081166
177,piterka,50.6803,47.4454,3.57,79,29,3.43,RU,1697081167
178,green river,41.5286,-109.4662,6.1,39,62,2.68,US,1697081167
179,naze,28.3667,129.4833,26.51,60,44,7.97,JP,1697081167
180,port alfred,-33.5906,26.891,17.32,98,100,1.79,ZA,1697081167
181,pangoa,-12.1167,-73.0,22.94,73,96,1.54,PE,1697081168
182,santa cruz,-17.8,-63.1667,27.7,74,100,2.57,BO,1697080932
183,dudinka,69.4058,86.1778,1.49,93,100,6.71,RU,1697081168
184,saipan,15.1355,145.701,28.39,94,100,7.72,MP,1697081169
185,chunskiy,56.0815,99.6342,13.71,52,54,3.88,RU,1697081169
186,kuna,43.4918,-116.4201,11.71,69,20,3.09,US,1697081169
187,la passe,45.5549,-0.8967,13.13,60,78,2.45,FR,1697081169
188,boa vista,2.8197,-60.6733,29.99,54,0,3.09,BR,1697080948
189,khanty-mansiysk,61.0042,69.0019,1.06,75,0,5.0,RU,1697080947
190,den burg,53.0542,4.7972,13.33,84,100,0.51,NL,1697081170
191,tazacorte,28.629,-17.9293,28.42,26,0,4.02,ES,1697081170
192,vorkuta,67.5,64.0,-0.49,84,99,1.03,RU,1697081170
193,karratha,-20.7377,116.8463,36.16,18,8,4.03,AU,1697080876
194,madikeri,12.4167,75.7333,20.67,91,100,0.25,IN,1697081171
195,idfu,24.9803,32.8747,23.9,37,0,3.32,EG,1697081171
196,sitka,57.0531,-135.33,8.94,71,20,1.54,US,1697080918
197,saint-remi,45.2668,-73.6159,9.97,94,97,2.63,CA,1697081055
198,udachny,66.4167,112.4,1.36,80,100,5.18,RU,1697081172
199,kasongo,-4.45,26.6667,20.2,91,89,1.43,CD,1697080937
200,leninskoye,41.7589,69.3864,20.09,24,17,1.05,KZ,1697081172
201,ivdel',60.6911,60.4206,0.66,77,31,1.79,RU,1697081172
202,palotina,-24.2839,-53.84,25.04,77,95,2.77,BR,1697080938
203,igarka,67.4667,86.5833,2.87,90,100,2.41,RU,1697080938
204,vrede,-27.4257,29.1659,14.67,71,94,1.21,ZA,1697081173
205,pemba,-12.974,40.5178,24.39,94,20,1.54,MZ,1697081173
206,yuzhno-kurilsk,44.0306,145.8556,12.99,70,37,4.13,RU,1697081173
207,vero beach,27.6386,-80.3973,27.21,91,40,1.54,US,1697081173
208,t'ongch'on-up,38.9539,127.8917,18.5,61,0,2.15,KP,1697081174
209,dwarka,22.2394,68.9678,27.36,72,5,2.61,IN,1697080939
210,cabo san lucas,22.8909,-109.9124,28.67,80,0,6.69,MX,1697081155
211,chatan,26.3094,127.7703,29.32,61,75,8.75,JP,1697081174
212,ponta delgada,37.7333,-25.6667,20.4,88,40,5.14,PT,1697081175
213,trinidad,-14.8333,-64.9,30.5,43,64,2.97,BO,1697080940
214,wadebridge,50.5173,-4.8363,17.58,100,75,5.66,GB,1697080941
215,mayya,61.7333,130.2811,7.62,55,40,5.84,RU,1697081175
216,opuwo,-18.0607,13.84,18.82,49,100,1.2,NA,1697081176
217,askoy,60.4092,5.226,8.75,81,75,9.77,NO,1697081176
218,quelimane,-17.8786,36.8883,23.97,88,40,0.0,MZ,1697080942
219,yarmouth,41.7057,-70.2286,17.03,93,0,0.89,US,1697081176
220,banfora,10.6333,-4.7667,24.32,89,100,1.41,BF,1697081176
221,kindberg,47.5,15.45,13.97,84,35,1.17,AT,1697080943
222,bebedouro,-20.9494,-48.4792,27.35,60,83,4.21,BR,1697081177
223,kruisfontein,-34.0033,24.7314,13.82,87,71,1.86,ZA,1697081177
224,preston,53.7667,-2.7167,9.07,96,100,1.18,GB,1697081144
225,neverkino,52.7854,46.7417,-0.22,82,75,5.22,RU,1697081177
226,santiago de cao,-7.9589,-79.2392,18.07,88,85,5.14,PE,1697081178
227,tarsus,36.9188,34.8784,19.21,42,0,1.43,TR,1697081179
228,ostashkov,57.1467,33.1075,10.25,91,100,6.66,RU,1697081179
229,kapa'a,22.0752,-159.319,27.99,76,20,5.14,US,1697081065
230,luderitz,-26.6481,15.1594,13.06,81,25,3.25,NA,1697081179
231,houghton,47.1219,-88.569,5.87,97,100,2.06,US,1697081180
232,leava,-14.3,-178.1667,27.4,82,84,7.03,WF,1697080946
233,turkestan,43.3333,68.25,17.96,29,100,0.67,KZ,1697081180
234,togur,58.3631,82.8265,3.97,87,22,4.47,RU,1697081180
235,sao joao da barra,-21.6403,-41.0511,22.71,87,48,8.4,BR,1697081180
236,urangan,-25.3,152.9,22.63,60,0,3.77,AU,1697081180
237,georgetown,5.4112,100.3354,29.97,78,20,1.54,MY,1697081181
238,nemuro,43.3236,145.575,14.6,60,0,5.25,JP,1697081181
239,muzaffargarh,30.0754,71.1921,26.01,16,0,2.41,PK,1697081181
240,iskateley,67.6803,53.1512,1.12,76,10,4.02,RU,1697081181
241,sao vicente,-23.9631,-46.3919,30.15,75,37,1.76,BR,1697081182
242,arraial do cabo,-22.9661,-42.0278,22.16,91,8,10.62,BR,1697081167
243,ancud,-41.8697,-73.8203,5.57,86,24,3.03,CL,1697080883
244,avarua,-21.2078,-159.775,24.03,73,75,5.66,CK,1697080948
245,belmonte,-15.8631,-38.8828,22.66,83,21,1.6,BR,1697080908
246,wainwright,52.839,-110.8572,11.63,40,80,6.4,CA,1697081182
247,rioja,-29.4111,-66.8507,14.23,46,0,2.45,AR,1697081183
248,talnakh,69.4865,88.3972,-0.44,95,100,1.19,RU,1697080953
249,imeni morozova,59.9757,31.0376,9.51,60,100,6.49,RU,1697081183
250,daru,-9.0763,143.2092,24.75,95,100,7.91,PG,1697081183
251,viedma,-40.8135,-62.9967,5.64,52,0,4.1,AR,1697080925
252,ulsteinvik,62.3432,5.8487,10.97,80,100,10.28,NO,1697081184
253,kasulu,-4.5767,30.1025,19.11,75,86,0.2,TZ,1697081184
254,dixon,38.4455,-121.8233,19.17,49,0,2.49,US,1697080952
255,norwalk,33.9022,-118.0817,21.15,71,0,3.6,US,1697080952
256,tianchang,37.9981,114.0156,19.54,51,100,1.87,CN,1697081185
257,figuig (centre),32.1089,-1.2286,18.36,41,5,1.91,MA,1697081185
258,fauske,67.2588,15.3918,3.76,84,22,2.26,NO,1697080953
259,conceicao do araguaia,-8.2578,-49.2647,27.26,56,36,1.96,BR,1697081185
260,atafu village,-8.5421,-172.5159,28.16,75,77,4.56,TK,1697081164
261,vernon,50.2581,-119.2691,13.75,70,100,1.03,CA,1697081185
262,argo,37.6333,22.7333,19.88,69,0,1.95,GR,1697081186
263,miri,4.4148,114.0089,30.08,70,20,1.54,MY,1697081186
264,yukhnov,54.7444,35.2297,6.32,61,100,7.38,RU,1697081186
265,boyolangu,-8.1181,111.8935,30.04,54,100,4.49,ID,1697081186
266,manokwari,-0.8667,134.0833,29.31,70,76,4.12,ID,1697081187
267,puerto baquerizo moreno,-0.9,-89.6,24.13,81,89,4.9,EC,1697081150
268,st. john's,47.5649,-52.7093,12.76,96,75,1.54,CA,1697081168
269,monroe,43.1501,-77.6831,11.26,90,100,2.57,US,1697080921
270,abdurahmoni jomi,37.9464,68.8088,17.16,63,0,0.0,TJ,1697081187
271,sanliurfa,37.2128,38.7817,16.93,41,11,2.64,TR,1697081188
272,putla villa de guerrero,17.0333,-97.9333,20.35,96,54,0.79,MX,1697081188
273,sirte,31.2089,16.5887,22.6,67,0,2.38,LY,1697080958
274,keetmanshoop,-26.5833,18.1333,14.51,67,82,4.12,NA,1697080958
275,pimentel,-6.8367,-79.9342,19.16,82,0,9.77,PE,1697080958
276,magumeri,12.1131,12.8274,26.69,36,50,2.44,NG,1697081189
277,salym,60.0625,71.4789,2.35,94,97,3.14,RU,1697081189
278,jayapura,-2.5333,140.7,33.66,76,84,1.93,ID,1697081189
279,rosarito,32.3333,-117.0333,18.68,74,85,1.03,MX,1697081189
280,altamira,-3.2033,-52.2064,26.23,69,3,2.37,BR,1697081190
281,ust-nera,64.5667,143.2,-7.1,92,100,1.34,RU,1697080905
282,nha trang,12.25,109.1833,32.0,70,76,2.03,VN,1697081045
283,labytnangi,66.6572,66.4183,0.6,83,100,1.33,RU,1697081190
284,kegen,43.0197,79.2203,11.46,38,0,3.3,KZ,1697081190
285,passagem franca,-6.1797,-43.7836,25.56,51,32,0.33,BR,1697080960
286,conde,-7.2597,-34.9075,23.7,88,20,3.09,BR,1697081191
287,port isabel,26.0734,-97.2086,24.02,92,75,3.09,US,1697080961
288,moultonborough,43.7548,-71.3967,11.41,92,99,0.91,US,1697081191
289,bafoulabe,13.8065,-10.8321,23.69,82,100,1.43,ML,1697081192
290,nizhneudinsk,54.9076,99.0276,17.79,41,86,2.68,RU,1697081192
291,chiredzi,-21.05,31.6667,20.91,56,0,1.32,ZW,1697081192
292,itamaraca,-7.7478,-34.8256,26.03,83,1,3.44,BR,1697081192
293,shakawe,-18.3667,21.85,20.25,57,38,2.27,BW,1697081192
294,lebu,-37.6167,-73.65,9.33,88,0,8.61,CL,1697081193
295,severnoye,56.3491,78.3619,4.43,70,9,3.58,RU,1697081193
296,fortaleza,-3.7227,-38.5247,27.07,74,20,5.66,BR,1697080963
297,zhaotong,27.3167,103.7167,10.83,94,100,2.6,CN,1697081193
298,bocanda,7.0626,-4.4995,22.12,99,97,1.03,CI,1697081194
299,columbia,34.0007,-81.0348,18.42,96,75,1.54,US,1697081152
300,kerikeri,-35.2268,173.9474,17.73,65,7,1.79,NZ,1697080903
301,uturoa,-16.7333,-151.4333,26.4,78,20,6.88,PF,1697080919
302,maceio,-9.6658,-35.7353,22.69,100,20,1.54,BR,1697081106
303,nicoya,10.1483,-85.452,24.69,96,100,0.86,CR,1697081195
304,gadzhiyevo,69.2551,33.3362,0.9,86,98,12.15,RU,1697081195
305,warman,52.3168,-106.5679,11.16,70,0,4.12,CA,1697080965
306,chos malal,-37.3781,-70.2709,11.44,41,0,1.55,AR,1697081195
307,ujszasz,47.3,20.0833,11.0,63,6,3.01,HU,1697081196
308,muroto-misakicho,33.2833,134.15,21.24,57,100,4.79,JP,1697081196
309,magdagachi,53.45,125.8,14.03,45,54,3.8,RU,1697081196
310,i-n-salah,27.1935,2.4607,25.21,26,9,9.65,DZ,1697081196
311,aswan,24.0934,32.907,24.24,36,0,4.99,EG,1697081197
312,kameda-honcho,37.8667,139.1167,21.62,49,20,2.57,JP,1697081197
313,spring creek,40.7266,-115.5859,5.22,69,99,6.5,US,1697081197
314,yeniseysk,58.4497,92.1703,9.41,72,100,6.71,RU,1697080967
315,hirara,24.8,125.2833,29.92,65,40,6.69,JP,1697081198
316,port hedland,-20.3167,118.5667,40.03,5,4,4.63,AU,1697081198
317,puerto lleras,3.0223,-73.4044,23.43,87,48,0.99,CO,1697081199
318,gamboma,-1.8764,15.8644,22.36,92,100,0.57,CG,1697081199
319,horta,38.5333,-28.6333,18.9,90,48,2.68,PT,1697080968
320,hermanus,-34.4187,19.2345,15.13,89,98,3.36,ZA,1697081199
321,fillmore,43.6666,-92.1002,12.63,71,100,4.12,US,1697081200
322,prado,-17.3411,-39.2208,22.49,83,8,2.99,BR,1697081200
323,acapulco de juarez,16.8634,-99.8901,25.9,89,40,2.06,MX,1697080939
324,taoudenni,22.6783,-3.9836,27.52,19,0,4.88,ML,1697081183
325,boguchany,58.3814,97.4531,12.7,70,100,2.68,RU,1697080970
326,ta`u,-14.2336,-169.5144,27.26,80,20,6.68,AS,1697081201
327,acarau,-2.8856,-40.12,26.04,80,54,6.55,BR,1697081108
328,newman,37.3138,-121.0208,19.13,50,0,1.79,US,1697081160
329,ghormach,35.7306,63.7826,19.08,33,4,2.06,AF,1697081201
330,saint-pierre,-21.3393,55.4781,23.82,64,0,1.54,RE,1697080948
331,shahr-e babak,30.1165,55.1186,18.02,19,2,1.35,IR,1697081202
332,ouadda,8.0777,22.4007,20.22,95,100,2.53,CF,1697080972
333,anshun,26.25,105.9333,15.78,87,100,2.25,CN,1697081202
334,howrah,22.5892,88.3103,32.0,70,0,0.0,IN,1697081152
335,juan griego,11.0817,-63.9655,28.07,94,4,5.66,VE,1697081202
336,fallon,39.4735,-118.7774,9.93,46,20,4.12,US,1697081203
337,bidya,32.1146,35.0803,20.62,79,48,1.06,PS,1697080973
338,la romana,18.4273,-68.9728,26.2,94,20,0.0,DO,1697081203
339,kudahuvadhoo,2.6708,72.8944,27.63,70,79,4.74,MV,1697081203
340,shimanovsk,52.0,127.7,15.33,43,19,4.71,RU,1697081203
341,novyy urgal,51.0736,132.5642,10.55,49,12,1.61,RU,1697081150
342,kupang,-10.1667,123.5833,33.32,49,20,4.63,ID,1697081204
343,praya,14.9215,-23.5087,26.3,61,20,3.09,CV,1697080974
344,taphan hin,16.2209,100.4198,28.36,80,99,1.1,TH,1697081204
345,mar del plata,-38.0023,-57.5575,6.72,80,0,2.06,AR,1697080979
346,la ronge,55.1001,-105.2842,11.14,66,0,3.6,CA,1697080975
347,youhao,47.8667,128.8333,17.4,43,19,4.51,CN,1697081205
348,hithadhoo,-0.6,73.0833,27.39,72,10,6.39,MV,1697081205
349,toliara,-23.35,43.6667,21.97,71,92,4.6,MG,1697081205
350,auki,-8.7676,160.7034,28.28,78,99,1.97,SB,1697081205
351,ooty,11.4,76.7,15.04,82,97,0.9,IN,1697080976
352,east london,-33.0153,27.9116,19.15,91,100,6.76,ZA,1697081164
353,masterton,-40.9597,175.6575,16.6,45,8,0.59,NZ,1697081206
354,cadale,2.7603,46.3222,26.3,84,41,4.41,SO,1697081123
355,shimoda,34.6667,138.95,22.2,61,38,5.32,JP,1697081206
356,usinsk,65.9939,57.5281,-1.07,98,94,2.24,RU,1697081207
357,fale old settlement,-9.3852,-171.2468,28.98,76,29,7.26,TK,1697080935
358,bonito,-21.1211,-56.4819,28.78,47,48,2.32,BR,1697080978
359,tarko-sale,64.9225,77.785,1.67,83,100,2.24,RU,1697080979
360,tidjikja,18.5564,-11.4271,31.27,26,74,4.8,MR,1697081207
361,banda aceh,5.5577,95.3222,28.58,71,100,1.48,ID,1697080980
362,klaksvik,62.2266,-6.589,5.51,61,100,7.46,FO,1697081172
363,machico,32.7,-16.7667,29.35,20,20,6.69,PT,1697081208
364,lata,40.1629,-8.3327,16.71,48,25,1.28,PT,1697081208
365,tazovsky,67.4667,78.7,1.78,98,100,3.1,RU,1697081150
366,robertsport,6.7533,-11.3686,24.69,89,100,2.77,LR,1697081208
367,coahuayana de hidalgo,18.7,-103.6583,24.62,93,90,1.22,MX,1697081209
368,axim,4.8699,-2.2405,25.02,90,67,3.04,GH,1697081209
369,tanabi,-20.6264,-49.6492,28.12,49,81,2.68,BR,1697081209
370,caleta de carquin,-11.0925,-77.6267,18.72,86,98,5.02,PE,1697080982
371,copala,16.65,-98.9833,25.18,87,72,1.78,MX,1697081210
372,karakoyunlu,39.8704,43.6301,3.89,73,0,0.84,TR,1697081210
373,glendive,47.1053,-104.7125,12.79,54,75,5.66,US,1697081210
374,akureyri,65.6835,-18.0878,-0.04,80,100,2.57,IS,1697081210
375,kwolla,8.9333,9.2833,23.62,92,65,1.67,NG,1697081210
376,turan,16.0678,108.2208,24.99,94,75,1.03,VN,1697080993
377,rikaze,29.25,88.8833,5.06,69,100,2.11,CN,1697080985
378,natal,-5.795,-35.2094,25.12,88,40,4.12,BR,1697081211
379,guamal,9.1433,-74.2238,26.08,86,5,0.71,CO,1697081211
380,coquimbo,-29.9533,-71.3436,12.85,82,0,1.03,CL,1697081211
381,camana,-16.6228,-72.7111,17.96,87,97,3.65,PE,1697081212
382,xichang,27.8964,102.2634,17.18,93,100,1.26,CN,1697081212
383,surigao,9.7839,125.4889,30.15,69,39,4.54,PH,1697081212
384,montecristo,8.2971,-74.4733,24.99,95,1,0.98,CO,1697080987
385,arlington,32.7357,-97.1081,20.66,68,100,6.69,US,1697081135
386,callao,-12.0667,-77.15,18.18,82,75,5.14,PE,1697080967
387,n'zeto,-7.2312,12.8666,24.66,86,100,4.26,AO,1697081213
388,cidreira,-30.1811,-50.2056,16.59,94,100,8.43,BR,1697081213
389,aitape,-3.1374,142.3475,28.65,78,93,2.91,PG,1697081213
390,aykhal,66.0,111.5,1.71,71,100,11.62,RU,1697081214
391,mossel bay,-34.1831,22.146,14.96,89,98,3.63,ZA,1697080989
392,jertih,5.7336,102.4897,32.82,64,53,0.9,MY,1697081215
393,karasu,41.071,30.7854,13.65,85,5,1.96,TR,1697081215
394,labrador city,52.9463,-66.9114,7.95,93,100,2.06,CA,1697081215
395,alvor,37.1299,-8.5917,23.36,62,63,2.48,PT,1697081215
396,banjar,-8.19,114.9675,32.32,50,8,2.26,ID,1697081216
397,sikonge,-5.6333,32.7667,20.6,48,100,1.83,TZ,1697080991
398,rudsar,37.1376,50.288,15.99,94,100,4.74,IR,1697080991
399,tolanaro,-25.0319,46.9987,21.04,94,75,4.12,MG,1697081216
400,yermentau,51.6214,73.1069,6.21,63,100,3.32,KZ,1697081216
401,port douglas,-16.4833,145.4667,25.5,63,74,7.13,AU,1697080992
402,kailua-kona,19.6406,-155.9956,27.98,76,75,5.14,US,1697081217
403,bull savanna,17.8868,-77.5902,25.98,84,28,4.45,JM,1697081217
404,odienne,9.51,-7.5692,21.78,97,100,1.46,CI,1697081217
405,vadso,70.0744,29.7487,2.09,80,75,11.83,NO,1697081217
406,hasaki,35.7333,140.8333,24.05,50,47,4.03,JP,1697081218
407,saldanha,-33.0117,17.9442,13.07,94,53,3.94,ZA,1697081218
408,katsuura,35.1333,140.3,21.33,55,29,4.56,JP,1697081218
409,vilhena,-12.7406,-60.1458,25.53,57,27,0.94,BR,1697081218
410,vila velha,-20.3297,-40.2925,23.3,88,40,4.63,BR,1697080994
411,tongliao,43.6125,122.2653,21.39,31,1,3.66,CN,1697080994
412,vila franca do campo,37.7167,-25.4333,20.23,99,88,4.2,PT,1697081219
413,altai,46.3722,96.2583,8.12,38,0,1.9,MN,1697081219
414,afaahiti,-17.75,-149.2833,26.93,79,25,6.97,PF,1697081219
415,morshansk,53.4435,41.8107,3.99,49,100,8.11,RU,1697081219
416,quincy,42.2529,-71.0023,15.25,86,0,0.0,US,1697081177
417,monze,-16.2833,27.4833,21.95,40,0,2.23,ZM,1697081220
418,castillos,-34.1667,-53.8333,7.57,64,82,5.87,UY,1697081220
419,lompoc,34.6391,-120.4579,18.21,80,0,10.28,US,1697080996
420,olyokminsk,60.3736,120.4264,12.22,70,100,5.81,RU,1697081220
421,n'dalatando,-9.2978,14.9116,19.48,89,98,0.89,AO,1697081221
422,mount gambier,-37.8333,140.7667,14.65,62,15,6.95,AU,1697081221
423,toamasina,-18.1667,49.3833,20.0,100,20,0.0,MG,1697081159
424,tympaki,35.0729,24.7685,19.87,66,14,1.34,GR,1697081222
425,broken hill,-31.95,141.4333,20.92,25,0,11.37,AU,1697080998
426,pisco,-13.7,-76.2167,19.03,77,99,4.12,PE,1697081222
427,oriximina,-1.7656,-55.8661,30.33,41,98,2.25,BR,1697081222
428,ouarzazat,30.9189,-6.8934,18.16,27,0,1.54,MA,1697081223
429,yorkton,51.2167,-102.4677,5.91,93,100,6.17,CA,1697081223
430,salta,-24.7859,-65.4117,13.65,59,100,3.6,AR,1697080999
431,sao tome,0.3365,6.7273,25.44,87,23,3.15,ST,1697081223
432,pionerskiy,54.9508,20.2275,14.52,85,100,12.28,RU,1697081224
433,quellon,-43.1167,-73.6167,7.72,76,82,5.38,CL,1697081224
434,steamboat springs,40.485,-106.8317,5.52,90,40,1.34,US,1697081224
435,paimpol,48.7784,-3.0438,19.18,93,100,6.24,FR,1697081001
436,svetlyy,54.675,20.1347,14.64,92,100,9.07,RU,1697081225
437,howard springs,-12.497,131.047,32.68,28,73,2.24,AU,1697081001
438,berezovyy,51.6667,135.7,16.6,45,12,3.64,RU,1697081225
439,demba,-5.51,22.2667,20.15,91,97,0.77,CD,1697081001
440,chu,43.5983,73.7614,20.05,25,70,2.64,KZ,1697081226
441,slavyanka,42.8633,131.3847,18.72,37,0,1.05,RU,1697081002
442,swan hill,-35.3378,143.5544,18.78,37,93,7.6,AU,1697081226
443,coronel oviedo,-25.4167,-56.45,23.83,91,71,3.63,PY,1697081226
444,diofior,14.1833,-16.6667,28.31,75,100,2.22,SN,1697081003
445,tindouf,27.6711,-8.1474,20.25,26,0,2.06,DZ,1697081227
446,zeya,53.75,127.2667,11.38,57,89,1.96,RU,1697081228
447,mahibadhoo,3.7833,72.9667,27.57,74,99,4.16,MV,1697081003
448,kapuskasing,49.4169,-82.4331,4.05,93,100,2.57,CA,1697081228
449,nikel,69.4128,30.222,0.1,88,100,11.29,RU,1697081228
450,myaydo,19.3667,95.2167,26.59,87,77,3.11,MM,1697081198
451,bac kan,22.1333,105.8333,23.88,74,99,1.13,VN,1697081229
452,holualoa,19.6228,-155.9522,25.91,77,75,5.14,US,1697081005
453,wurtulla,-26.7568,153.1256,28.5,71,0,3.58,AU,1697081005
454,mizdah,31.4451,12.9801,17.77,75,0,2.84,LY,1697081230
455,port moresby,-9.4431,147.1797,29.68,79,40,5.14,PG,1697081230
456,kununurra,-15.7667,128.7333,34.99,38,68,3.09,AU,1697080969
457,siracusa,37.0881,15.2792,18.77,69,0,1.1,IT,1697081230
458,quilpue,-33.045,-71.4494,10.54,81,0,1.54,CL,1697081230
459,teofilo otoni,-17.8575,-41.5053,20.01,85,4,1.42,BR,1697081231
460,alaverdi,41.0977,44.6732,7.76,83,34,0.91,AM,1697081231
461,canutama,-6.5339,-64.3831,27.93,58,35,0.63,BR,1697081231
462,kingston,17.997,-76.7936,29.53,83,20,4.63,JM,1697080952
463,lae,-6.7221,146.9847,29.37,84,99,1.13,PG,1697081231
464,novodvinsk,64.4165,40.8122,-0.12,91,100,5.9,RU,1697081231
465,najran,17.4924,44.1277,16.36,22,0,0.82,SA,1697081232
466,quatre cocos,-20.2078,57.7625,23.94,66,93,1.27,MU,1697081232
467,sinop,41.7711,34.8709,6.37,87,19,3.28,TR,1697081232
468,broome,42.2506,-75.833,11.12,84,100,0.45,US,1697081233
469,murzuq,25.9155,13.9184,20.08,35,0,3.64,LY,1697081233
470,carloforte,39.145,8.3058,22.39,58,0,2.47,IT,1697081233
471,mashhad,36.297,59.6062,16.08,63,0,0.0,IR,1697081233
472,chui,-33.6971,-53.4616,8.37,67,100,5.9,UY,1697081234
473,gangtok,27.3333,88.6167,18.8,71,1,1.42,IN,1697081234
474,kemecse,48.0753,21.8063,11.1,84,13,3.23,HU,1697081234
475,kourou,5.1552,-52.6478,26.03,76,0,4.25,GF,1697081012
476,chaman,30.9236,66.4512,22.48,15,0,1.82,PK,1697081012
477,elverum,60.8819,11.5623,3.1,71,9,1.64,NO,1697081012
478,loukhi,66.0764,33.0381,4.01,97,100,4.34,RU,1697081235
479,igarape acu,-1.1289,-47.62,22.69,93,0,1.92,BR,1697081235
480,taounate,34.5,-4.8333,23.58,57,0,0.77,MA,1697081235
481,ciudad sabinas hidalgo,26.5,-100.1667,21.49,89,18,1.96,MX,1697081236
482,anaco,9.4389,-64.4728,23.36,90,21,2.22,VE,1697080981
483,buka,40.8108,69.1986,19.47,25,4,2.08,UZ,1697081236
484,pandan,14.0453,124.1694,28.67,81,77,2.9,PH,1697081236
485,korla,41.7597,86.1469,19.21,30,0,0.14,CN,1697081014
486,hilo,19.7297,-155.09,25.14,87,75,0.45,US,1697081236
487,praia,14.9215,-23.5087,26.3,61,20,3.09,CV,1697081237
488,tangalle,6.024,80.7911,25.81,85,94,3.71,LK,1697081015
489,hovd,48.0056,91.6419,11.67,34,6,0.33,MN,1697081015
490,hamada,34.8833,132.0833,21.4,51,15,5.44,JP,1697081015
491,kotlas,61.2611,46.6556,2.25,78,100,1.79,RU,1697081237
492,okhotsk,59.3833,143.3,-0.49,57,100,2.81,RU,1697081237
493,al hufuf,25.3646,49.5653,23.19,83,0,0.0,SA,1697081238
494,uaua,-9.8414,-39.4817,22.46,67,13,6.63,BR,1697081016
495,matoury,4.8483,-52.3317,25.98,89,0,1.54,GF,1697081017
496,katabu,-4.9333,122.5167,33.75,37,59,3.12,ID,1697081238
497,tari,12.4086,4.4914,26.63,62,25,2.25,NG,1697081238
498,kolonia town,6.964,158.206,28.06,100,100,0.0,FM,1697080942
499,churapcha,62.0025,132.4325,6.49,61,6,7.06,RU,1697081239
500,pasighat,28.0667,95.3333,24.63,78,47,0.4,IN,1697081239
501,santa marta,11.2408,-74.199,28.03,83,20,2.06,CO,1697080984
502,andergrove,-21.0833,149.1833,28.69,63,92,6.65,AU,1697081240
503,bor,56.3567,44.0669,3.96,62,100,9.08,RU,1697081240
504,al qadarif,14.0349,35.3834,24.46,74,16,3.21,SD,1697081240
505,upata,8.0086,-62.3989,23.11,87,22,1.45,VE,1697081240
506,bhilwara,25.35,74.6333,27.04,44,0,2.15,IN,1697081240
507,eravur town,7.7782,81.6038,26.1,84,98,2.53,LK,1697081241
508,sarykemer,43.0,71.5,14.71,41,36,2.74,KZ,1697081241
509,lubang,13.8584,120.124,28.55,77,99,6.77,PH,1697081241
510,bardai,11.65,7.2333,22.54,58,69,1.04,NG,1697081241
511,tshabong,-26.05,22.45,19.56,74,100,8.39,BW,1697081241
512,hood river,45.7054,-121.5215,13.08,96,100,0.89,US,1697081242
513,yokadouma,3.5167,15.05,20.63,94,83,0.79,CM,1697081242
514,kincardine,56.0667,-3.7167,7.12,95,57,1.86,GB,1697081242
515,gumdag,39.2061,54.5906,14.37,74,100,2.95,TM,1697081242
516,chillicothe,39.3331,-82.9824,10.7,73,0,0.0,US,1697081242
517,ryotsu-minato,38.0833,138.4333,19.04,48,7,1.27,JP,1697081023
518,abaza,52.655,90.0928,14.33,52,83,1.17,RU,1697081243
519,warwick,41.7001,-71.4162,14.37,89,0,0.45,US,1697081243
520,chifeng,42.2683,118.9636,17.5,42,98,1.45,CN,1697081023
521,zaltan,32.947,11.8665,22.74,62,0,3.29,LY,1697081243
522,egilsstadir,65.2653,-14.3948,-0.05,86,0,1.54,IS,1697081243
523,metlili chaamba,32.2667,3.6333,18.52,45,0,2.57,DZ,1697081244
524,angaur state,6.906,134.13,28.44,77,41,8.05,PW,1697081184
525,esil,51.9556,66.4042,3.59,68,100,2.49,KZ,1697081025
526,kokopo,-4.352,152.2633,29.95,65,24,3.99,PG,1697081244
527,tanumah,27.1,44.1333,25.27,17,2,4.75,SA,1697081120
528,humberto de campos,-2.5983,-43.4611,25.01,82,33,2.81,BR,1697081025
529,muridke,31.8025,74.2617,22.01,30,0,0.85,PK,1697081245
530,acajutla,13.5928,-89.8275,26.7,83,100,1.48,SV,1697081245
531,guayaramerin,-10.8368,-65.3614,28.59,52,54,1.27,BO,1697081245
532,hammerfest,70.6634,23.6821,-2.75,86,100,3.09,NO,1697081027
533,touros,-5.1989,-35.4608,25.28,79,34,6.7,BR,1697081245
534,sur,22.5667,59.5289,30.2,48,0,2.24,OM,1697081027
535,abdulino,53.7,53.6667,1.01,92,97,4.04,RU,1697081027
536,yung shue wan,22.2333,114.1167,27.96,70,69,0.89,HK,1697081246
537,barra de santo antonio,-9.4047,-35.5072,22.6,81,3,2.85,BR,1697081247
538,yigo village,13.5361,144.8886,31.16,72,20,9.77,GU,1697081247
539,yanam,16.7333,82.2167,30.44,61,43,1.1,IN,1697081028
540,arkhangel'sk,64.5401,40.5433,0.07,91,100,6.25,RU,1697081247
541,chibougamau,49.9168,-74.3659,6.79,93,100,2.57,CA,1697081247
542,ulubey,40.8721,37.7588,11.07,92,100,0.79,TR,1697081248
543,saint-francois,46.4154,3.9054,15.36,100,39,0.51,FR,1697081248
544,nagpur,21.15,79.1,27.01,78,40,1.54,IN,1697081029
545,bikenibeu village,1.3673,173.1241,31.98,62,75,1.54,KI,1697081248
546,mil'kovo,55.6078,37.7956,7.28,75,100,8.77,RU,1697081030
547,titabar,26.6,94.2,26.45,83,25,1.34,IN,1697081249
548,inari,68.906,27.0288,-0.89,95,100,7.6,FI,1697081249
549,zhezqazghan,47.7833,67.7667,5.32,93,100,4.0,KZ,1697081249
550,oamaru,-45.0784,170.9801,14.65,66,61,4.82,NZ,1697081031
551,lu-uk,5.9684,121.3122,29.11,69,100,1.86,PH,1697081249
552,tsaratanana,-16.7833,47.65,23.49,71,89,0.76,MG,1697081031
553,belyy yar,53.6039,91.3903,11.94,66,0,2.0,RU,1697081250
554,arteche,12.2645,125.4048,30.7,64,99,2.31,PH,1697081250
555,dhulia,20.9,74.7833,28.17,52,8,1.4,IN,1697081250
556,aral,40.5156,81.2636,20.01,24,0,2.67,CN,1697081250
557,bafia,4.75,11.2333,20.37,98,98,0.49,CM,1697081251
558,alofi,-19.0595,-169.9187,26.94,65,40,5.66,NU,1697081171
559,watsa,3.0372,29.5355,16.96,97,99,0.74,CD,1697081251
560,sabang,5.8933,95.3214,27.51,75,100,2.94,ID,1697081251
561,kamikawa,43.84,142.7711,16.15,76,64,4.31,JP,1697081251
562,lethem,3.3803,-59.7968,28.64,42,4,2.9,GY,1697081034
563,alamosa,37.4695,-105.87,8.99,53,0,2.57,US,1697081252
564,barra da estiva,-13.6261,-41.3269,16.62,88,0,1.29,BR,1697081035
565,magadan,59.5667,150.8,0.85,74,5,4.02,RU,1697081252
566,ingeniero jacobacci,-41.3427,-69.5448,8.84,42,0,3.35,AR,1697081253
567,choibalsan,48.0667,114.5,12.22,45,7,1.09,MN,1697081253
568,lospalos,-8.5186,127.0025,31.18,39,38,4.09,TL,1697081253
